     3.04           OBSERVATION DATA    M                   RINEX VERSION / TYPE
ssrcrin-15.6.1x                         20240223 134411 UTC PGM / RUN BY / DATE 
(00000000019184418271000004) Septentrio proprietary         COMMENT             
SEPT                                                        MARKER NAME         
Unknown                                                     MARKER NUMBER       
Unknown             Unknown                                 OBSERVER / AGENCY   
3690826             SEPT MOSAIC-X5      4.14.0              REC # / TYPE / VERS 
Unknown             Unknown                                 ANT # / TYPE        
  4201734.6902   177836.3640  4779349.4835                  APPROX POSITION XYZ 
        0.0000        0.0000        0.0000                  ANTENNA: DELTA H/E/N
G    9 C1C L1C C1W C2W L2W C2L L2L C5Q L5Q                  SYS / # / OBS TYPES 
E   10 C1C L1C C6C L6C C5Q L5Q C7Q L7Q C8Q L8Q              SYS / # / OBS TYPES 
S    4 C1C L1C C5I L5I                                      SYS / # / OBS TYPES 
R    8 C1C L1C C2P L2P C2C L2C C3Q L3Q                      SYS / # / OBS TYPES 
C   12 C1P L1P C5P L5P C2I L2I C7I L7I C6I L6I C7D L7D      SYS / # / OBS TYPES 
J    6 C1C L1C C2L L2L C5Q L5Q                              SYS / # / OBS TYPES 
I    2 C5A L5A                                              SYS / # / OBS TYPES 
SEPTENTRIO RECEIVERS OUTPUT ALIGNED CARRIER PHASES.         COMMENT             
NO FURTHER PHASE SHIFT APPLIED IN THE RINEX ENCODER.        COMMENT             
G L1C                                                       SYS / PHASE SHIFT   
G L2W                                                       SYS / PHASE SHIFT   
G L2L  0.00000                                              SYS / PHASE SHIFT   
G L5Q  0.00000                                              SYS / PHASE SHIFT   
E L1C  0.00000                                              SYS / PHASE SHIFT   
E L6C  0.00000                                              SYS / PHASE SHIFT   
E L5Q  0.00000                                              SYS / PHASE SHIFT   
E L7Q  0.00000                                              SYS / PHASE SHIFT   
E L8Q  0.00000                                              SYS / PHASE SHIFT   
S L1C                                                       SYS / PHASE SHIFT   
S L5I                                                       SYS / PHASE SHIFT   
R L1C                                                       SYS / PHASE SHIFT   
R L2P  0.00000                                              SYS / PHASE SHIFT   
R L2C                                                       SYS / PHASE SHIFT   
R L3Q  0.00000                                              SYS / PHASE SHIFT   
C L1P  0.00000                                              SYS / PHASE SHIFT   
C L5P  0.00000                                              SYS / PHASE SHIFT   
C L2I                                                       SYS / PHASE SHIFT   
C L7I                                                       SYS / PHASE SHIFT   
C L6I                                                       SYS / PHASE SHIFT   
C L7D                                                       SYS / PHASE SHIFT   
J L1C                                                       SYS / PHASE SHIFT   
J L2L  0.00000                                              SYS / PHASE SHIFT   
J L5Q  0.00000                                              SYS / PHASE SHIFT   
I L5A                                                       SYS / PHASE SHIFT   
  2024     2    23    13    44   27.0000000     GPS         TIME OF FIRST OBS   
 C1C    0.000 C2C    0.000 C2P    0.000                     GLONASS COD/PHS/BIS 
    18                                                      LEAP SECONDS        
 14 R01  1 R02 -4 R03  5 R09 -2 R11  0 R12 -1 R13 -2 R14 -7 GLONASS SLOT / FRQ #
    R15  0 R16 -1 R21  4 R22 -3 R23  3 R24  2               GLONASS SLOT / FRQ #
                                                            END OF HEADER       
> 2024 02 23 13 44 27.0000000  0 20
R24  22442787.146 7 120011795.06007                                  22442797.127 6  93342454.31106
C12                                                                  22855393.139 6 119014038.20506  22855397.259 7  92029212.60507
E21  26449457.800 4                                                  26449458.576 3
C11                                                                  25342865.253 5 131966949.14205  25342868.414 5 102045235.81305
R23  20713773.130 6 110804712.60406
G31  22462981.240 7 118043755.64507                  22462980.568 5  91982146.19805  22462980.988 6  91982137.20106
G25                                                                                  23843531.624 3                  23843534.986 5  93567152.46205
G26  22841671.471 7 120033798.43907                  22841677.476 4  93532852.17204  22841676.095 6  93532846.20106  22841675.271 8  89635640.62608
C34                                  23732158.039 7  93130091.35907  23732155.027 7 123579577.80507
G29  22148925.434 6 116393382.58006                  22148923.626 6  90696138.42306  22148924.988 6  90696150.41806
S21  39707764.578 6 208665715.32706
C44                                  23422909.539 6  91916526.08306  23422963.655 4
G28  22697059.300 7 119273848.87307                  22697059.102 3  92940664.61403  22697059.505 6  92940652.58706  22697065.099 7  89068157.11407
G18  23808661.369 6 125115408.60206                                                  23808664.986 6  97492504.61706  23808668.900 7  93430405.06307
R12  24168128.047 5 129101793.40105
E26  25696764.021 6 135037407.38406                                  25696767.528 7 100839635.41307  25696766.935 6 103470232.35806
E33  28777987.849 6 151229342.63906                                  28777999.858 5 112931051.77605  28777995.442 4 115877066.71404
C25                                  23373797.679 7  91723801.63707  23373795.513 7 121713481.17507
R14                                                                  21837869.361 5  90539634.25405
S36  39684588.566 6 208543928.48006
> 2024 02 23 13 44 28.0000000  0 20
R24  20943212.990 7 111992898.62907                                  20943222.842 6  87105534.87806
C12                                                                  21356432.517 6 111208556.08006  21356436.485 7  85993518.70007
E21  24950903.886 4                                                  24950903.373 3
C11                                                                  23843382.723 5 124158754.91205  23843386.843 5  96007444.81005
R23  19214952.306 6 102787033.22506
G31  20964109.729 7 110167132.73107                  20964109.016 5  85844517.95305  20964109.473 6  85844508.96806
G25                                                                                  22345200.369 3                  22345206.373 5  87687389.02805
G26  21342314.497 7 112154624.20607                  21342320.462 4  87393235.89004  21342318.927 6  87393229.92506  21342318.261 8  83751841.68508
C34                                  22232860.432 7  87246525.44207  22232857.480 7 115772341.63307
G29  20650263.955 6 108517863.60306                  20650262.164 6  84559370.38806  20650263.573 6  84559382.38206
S21  38208850.649 6 200788868.37706
C44                                  21924238.784 6  86035420.32206  21924292.463 4
G28  21198527.217 7 111399009.96407                  21198527.063 3  86804426.49003  21198527.627 6  86804414.47906  21198532.987 7  83187595.58507
G18  22309167.798 6 117235517.43606                  22309169.287 3                  22309171.578 6  91352329.68106  22309175.406 7  87546070.75107
R12  22669931.797 5 121098693.40005
E26  24197481.680 6 127158624.93106                                  24197485.063 7  94956129.04707  24197484.479 6  97433243.23206
E33  27278439.903 6 143349164.80706                                  27278451.849 5 107046503.41705  27278447.751 4 109839008.37204
C25                                  21874691.049 7  85840985.19707  21874689.104 7 113907239.53407
R14                                                                  20338430.168 5  84322971.14005
S36  38185673.035 6 200667083.33106
> 2024 02 23 13 44 29.0000000  0 20
R24  20942603.951 7 111989643.20907                                  20942613.207 6  87103002.87606
C12                                                                  21356434.113 6 111208563.73506  21356438.090 7  85993524.59907
E21  24951309.511 4                                                  24951308.355 3
C11                                                                  23842864.057 5 124156063.77605  23842870.325 5  96005363.82705
R23  19215093.713 6 102787787.68206
G31  20964199.964 7 110167607.39407                  20964199.311 5  85844887.82205  20964199.834 6  85844878.82406
G25                                                                                  22345831.319 3                  22345836.613 5  87689862.89105
G26  21341921.601 7 112152559.88107                  21341927.603 4  87391627.32904  21341926.229 6  87391621.35206  21341925.433 8  83750300.14208
C34                                  22232526.787 7  87245215.83507  22232523.620 7 115770603.84307
G29  20650563.148 6 108519436.45906                  20650561.436 6  84560595.99006  20650562.988 6  84560607.95906
S21  38208899.698 6 200789119.41906
C44                                  21924528.918 6  86036558.63306
G28  21198955.534 7 111401259.65307                  21198955.145 3  86806179.48903  21198955.550 6  86806167.47906  21198961.049 7  83189275.53907
G18  22308639.449 6 117232739.81406                  22308640.732 3  91350154.24813  22308642.924 6  91350165.28306  22308646.850 7  87543996.56107
R12  22670692.126 5 121102760.13205
E26  24197163.161 6 127156950.55406                                  24197166.512 7  94954878.69307  24197165.898 7  97431960.24307
E33  27277857.090 6 143346101.63706                                  27277869.087 5 107044215.97305  27277864.800 4 109836661.27004
C25                                  21874547.449 7  85840421.36807  21874545.423 7 113906491.36107
R14                                                                  20337954.441 5  84321005.05805
S36  38185721.436 6 200667336.24506
> 2024 02 23 13 44 30.0000000  0 19
C12                                                                  21356435.598 6 111208571.77306  21356439.539 7  85993530.82107
E21  24951716.326 4                                                  24951714.772 3
C11                                                                  23842345.838 5 124153372.72405  23842353.943 5  96003282.94705
R23  19215235.076 6 102788542.89606
G31  20964290.330 7 110168082.65807                  20964289.723 5  85845258.15805  20964290.431 6  85845249.17406
G25                                                                                  22346462.976 3                  22346466.983 5  87692336.82005
G26  21341529.016 7 112150495.80507                  21341534.776 4  87390018.96004  21341533.653 6  87390012.98606  21341532.666 8  83748758.79208
C34                                  22232193.112 7  87243906.47507  22232189.577 7 115768866.37707
G29  20650862.542 6 108521009.64906                  20650860.785 6  84561821.85106  20650862.629 6  84561833.85606
S21  38208945.783 6 200789370.37806
C44                                  21924819.082 6  86037697.20106
G28  21199383.738 7 111403509.83007                  21199383.280 3  86807932.86703  21199383.789 6  86807920.85706  21199389.226 7  83190955.86607
G18  22308111.159 6 117229962.48506                  22308112.235 3  91347990.11303  22308114.563 6  91348001.15606  22308118.294 7  87541922.58407
R12  22671453.144 5 121106827.04905
E26  24196844.585 6 127155276.47706                                  24196847.904 7  94953628.57607  24196847.354 7  97430677.51807
E33  27277274.186 6 143343038.43206                                  27277286.360 5 107041928.49305  27277281.522 4 109834314.09504
C25                                  21874403.905 7  85839857.83407  21874401.638 7 113905743.56907
R14                                                                  20337480.087 5  84319039.33805
S36  38185769.037 6 200667589.09506
> 2024 02 23 13 44 31.0000000  0 18
C12                                                                  21356437.319 6 111208580.38606  21356441.145 7  85993537.48907
E21  24952122.805 4                                                  24952120.706 3
C11                                                                  23841828.328 5 124150682.05905  23841837.540 5  96001202.33505
R23  19215376.548 6 102789299.04506
G31  20964380.827 7 110168558.65207                  20964380.269 5  85845629.06405  20964380.587 6  85845620.06106
G25                                                                                  22347093.658 3                  22347097.701 5  87694811.01505
G26  21341136.227 7 112148432.13007                  21341142.060 4  87388410.90404  21341141.072 7  87388404.93707  21341139.960 8  83747217.74308
C34                                  22231859.507 7  87242597.43207  22231855.881 7 115767129.34707
G29  20651161.884 6 108522583.40206                  20651160.245 6  84563048.15506  20651161.547 6  84563060.14906
S21  38208994.416 6 200789621.37706
C44                                  21925109.309 6  86038836.16906
G28  21199812.038 6 111405760.60806                  21199811.617 3  86809686.72303  21199812.278 6  86809674.70606  21199817.549 7  83192636.64107
G18  22307582.456 6 117227185.57406                  22307583.824 3  91345826.29203  22307585.977 6  91345837.32106  22307589.848 7  87539848.91907
R12  22672214.314 5 121110894.35605
E26  24196526.086 6 127153602.83706                                  24196529.435 7  94952378.81407  24196528.852 7  97429395.15007
C25                                  21874260.420 7  85839294.69007  21874258.062 7 113904996.30707
R14                                                                  20337006.496 5  84317073.93305
S36  38185819.020 6 200667841.91606
> 2024 02 23 13 44 32.0000000  0 18
C12                                                                  21356439.059 6 111208589.29906  21356442.853 7  85993544.39007
E21  24952528.847 4                                                  24952527.494 4
C11                                                                                                  23841321.276 6  95999121.75006
R23  19215517.770 6 102790055.81706
G31  20964471.333 7 110169035.10207                  20964470.922 5  85846000.32405  20964471.416 6  85845991.33106
G25                                                                                  22347725.602 3                  22347727.841 5  87697285.20305
G26  21340743.769 7 112146368.57507                  21340749.393 4  87386802.94204  21340748.379 7  87386796.95907  21340747.285 8  83745676.77808
C34                                  22231525.977 7  87241288.54707  22231522.292 7 115765392.52207
G29  20651461.269 6 108524157.34706                  20651459.741 6  84564274.60706  20651461.078 6  84564286.58906
S21  38209041.247 6 200789872.19506
C44                                  21925399.600 6  86039975.29106
G28  21200240.317 6 111408011.78106                  21200239.998 3  86811440.88203  21200240.688 6  86811428.85706  21200245.945 7  83194317.70307
G18  22307054.104 6 117224408.85706                  22307055.457 3  91343662.61403  22307057.476 6  91343673.64506  22307061.415 7  87537775.39507
R12  22672975.409 5 121114961.69805
E26  24196207.871 6 127151929.41306                                  24196210.921 7  94951129.18407  24196210.385 7  97428112.92007
C25                                  21874116.991 7  85838731.73707  21874114.864 7 113904249.29907
R14                                                                  20336531.241 5  84315108.73205
S36  38185869.353 6 200668094.51806
> 2024 02 23 13 44 33.0000000  0 18
C12                                                                  21356440.932 6 111208598.86906  21356444.668 7  85993551.79207
E21  24952935.559 4                                                  24952933.316 3
C11                                                                                                  23840805.224 6  95997041.50306
R23  19215659.217 6 102790813.60706
G31  20964561.805 7 110169512.42307                  20964561.772 5  85846372.26305  20964562.353 6  85846363.27606
G25                                                                                  22348356.489 3                  22348358.329 5  87699759.75805
G26  21340351.161 7 112144305.49107                  21340356.861 4  87385195.35604  21340356.074 7  87385189.39107  21340354.691 8  83744136.17508
C34                                  22231192.503 7  87239980.08907  22231188.913 7 115763656.25607
G29  20651760.827 6 108525731.89306                  20651759.362 6  84565501.52406  20651760.894 6  84565513.52306
S21  38209089.903 6 200790123.18806
C44                                  21925690.089 6  86041114.85806
G28  21200668.613 6 111410263.68606                  21200668.460 3  86813195.60803  21200669.058 6  86813183.60306  21200674.421 7  83195999.31607
G18  22306525.745 6 117221632.71006                  22306527.251 3  91341499.39303  22306528.964 6  91341510.40706  22306533.114 7  87535702.30207
R12  22673736.668 5 121119029.51105
E26  24195889.478 7 127150256.57007                                  24195892.542 7  94949879.98907  24195891.978 7  97426831.13107
C25                                  21873973.655 7  85838169.25607  21873971.471 7 113903502.90407
R14                                                                  20336055.918 5  84313143.96805
S36  38185918.487 6 200668347.32606
> 2024 02 23 13 44 34.0000000  0 18
C12                                                                  21356442.918 6 111208608.68206  21356446.542 7  85993559.37407
E21  24953341.636 4                                                  24953338.829 3
C11                                                                                                  23840289.009 6  95994961.25306
R23  19215801.013 6 102791571.93906
G31  20964652.462 7 110169990.15107                  20964652.671 5  85846744.52105  20964653.256 6  85846735.52606
G25                                                                                  22348987.659 3                  22348988.603 5  87702234.23205
G26  21339958.521 7 112142242.47507                  21339964.293 4  87383587.82104  21339963.425 7  87383581.83207  21339962.113 8  83742595.61008
C34                                  22230859.124 7  87238671.74907  22230855.701 7 115761920.12907
G29  20652060.311 6 108527306.61306                  20652059.028 6  84566728.57506  20652060.468 6  84566740.56006
S21  38209137.003 6 200790373.95106
C44                                  21925980.521 6  86042254.52106
G28  21201097.067 6 111412515.90806                  21201097.065 3  86814950.58303  21201097.623 6  86814938.55306  21201102.930 7  83197681.17407
G18  22305997.620 6 117218856.68206                  22305999.121 3  91339336.25603  22306000.660 6  91339347.27806  22306004.847 7  87533629.30107
R12  22674497.914 5 121123097.26605
E26  24195571.290 7 127148583.86607                                  24195574.201 7  94948630.89207  24195573.691 7  97425549.45107
C25                                  21873830.357 7  85837606.90907  21873828.280 7 113902756.69207
R14  20335577.465 6                                                  20335582.220 5  84311179.36105
S36  38185966.709 6 200668599.77206
> 2024 02 23 13 44 35.0000000  0 19
C12                                                                  21356444.841 6 111208618.69806  21356448.567 7  85993567.11107
E21  24953748.075 4                                                  24953745.143 3
C11                                                                                                  23839772.907 6  95992880.96106
R23  19215942.810 6 102792330.77706
G31  20964743.341 7 110170468.24207                  20964743.678 4  85847117.06004  20964744.203 6  85847108.07506
G25                                                                                  22349618.851 4                  22349618.312 5  87704708.67705
G26  21339566.101 7 112140179.45707                  21339571.720 4  87381980.27704  21339570.929 7  87381974.29907  21339569.527 8  83741055.04908
C34                                  22230525.733 7  87237363.48307  22230522.350 7 115760184.11107
G29  20652359.971 6 108528881.43306                  20652358.711 6  84567955.70806  20652360.084 6  84567967.70406
R24  20938952.415 7 111969984.90217
S21  38209183.736 6 200790624.41606
C44                                  21926271.029 6  86043394.28706
G28  21201525.403 6 111414768.38406                  21201525.760 3  86816705.75603  21201526.234 6  86816693.75606  21201531.499 7  83199363.22607
G18  22305469.542 6 117216080.71206                  22305471.054 3  91337173.16003  22305472.234 6  91337184.19406  22305476.593 7  87531556.34807
R12  22675260.086 5 121127164.94205
E26  24195253.036 7 127146911.25907                                  24195255.935 7  94947381.85807  24195255.374 7  97424267.83607
C25                                  21873687.088 7  85837044.66507  21873685.275 7 113902010.62807
R14  20335103.728 6 108397544.59616                                  20335109.249 5  84309214.82305
S36  38186013.795 6 200668851.90706
> 2024 02 23 13 44 36.0000000  0 19
C12                                                                  21356446.509 6 111208628.53906  21356450.477 7  85993574.73007
E21  24954153.883 4                                                  24954151.489 4
C11                                                                                                  23839256.324 6  95990800.37606
R23  19216084.313 6 102793089.82306
G31  20964834.302 7 110170946.35807                  20964834.684 4  85847489.61604  20964835.220 6  85847480.60706
G25                                                                                  22350248.406 3                  22350248.268 5  87707182.80405
G26  21339173.694 7 112138116.14607                  21339179.112 4  87380372.51104  21339178.297 7  87380366.52807  21339176.981 8  83739514.26708
C34                                  22230192.322 7  87236055.01307  22230188.933 7 115758447.84207
G29  20652659.335 6 108530456.04706                  20652658.364 6  84569182.68006  20652659.477 6  84569194.69006
R24  20938344.256 7 111966731.70507                                                                  20938340.037 7  83952771.75817
S21  38209231.336 6 200790874.21806
C44                                  21926561.417 6  86044533.88706
G28  21201953.988 7 111417020.77907                  21201954.436 3  86818460.86103  21201954.721 6  86818448.87106  21201960.027 7  83201045.20607
G18  22304941.326 6 117213304.47606                  22304942.839 3  91335009.86203  22304943.789 6  91335020.88906  22304948.332 7  87529483.17507
R12  22676020.776 5 121131232.24505
E26  24194934.725 7 127145238.36607                                  24194937.574 7  94946132.63407  24194937.030 7  97422986.01907
C25                                  21873543.826 7  85836482.29107  21873541.957 7 113901264.38107
R14  20334629.526 6 108395018.60306                                  20334635.522 5  84307250.14205
S36  38186063.810 6 200669103.38306
> 2024 02 23 13 44 37.0000000  0 19
C12                                                                  21356448.440 6 111208638.27706  21356452.248 7  85993582.26507
E21  24954559.469 4                                                  24954557.776 3
C11                                                                  23838712.831 4                  23838739.971 6  95988719.54706
R23  19216226.315 6 102793849.06706
G31  20964925.233 7 110171424.51607                  20964925.682 4  85847862.20704  20964926.266 6  85847853.22106
G25                                                                                  22350878.346 4                  22350878.604 5  87709656.64505
G26  21338780.962 7 112136052.51707                  21338786.476 4  87378764.48504  21338785.774 7  87378758.51007  21338784.318 8  83737973.25608
C34                                  22229858.809 7  87234746.39707  22229855.632 7 115756711.36207
G29  20652958.888 6 108532030.48706                  20652957.967 6  84570409.51906  20652959.154 6  84570421.50106
R24  20937735.995 7 111963478.40407                                                                  20937731.651 6  83950332.43706
S21  38209278.440 6 200791123.41406
C44                                  21926851.729 6  86045673.33606
G28  21202382.586 6 111419273.13906                  21202383.082 3  86820215.94003  21202383.287 6  86820203.95406  21202388.552 7  83202727.15707
G18  22304413.007 6 117210528.03406                  22304414.624 3  91332846.40403  22304415.305 6  91332857.43706  22304419.994 7  87527409.85007
R12  22676781.823 5 121135299.18705
E26  24194616.293 7 127143565.27607                                  24194619.180 7  94944883.25507  24194618.613 6  97421704.05306
C25                                  21873400.457 7  85835919.79407  21873398.680 7 113900517.97507
R14  20334155.807 6 108392492.32306                                  20334162.307 5  84305285.32005
S36  38186110.418 6 200669354.36606
> 2024 02 23 13 44 38.0000000  0 19
C12                                                                  21356450.265 6 111208648.41806  21356454.144 7  85993590.10307
E21  24954964.553 4                                                  24954963.401 4
C11                                                                  23838196.671 4                  23838223.057 6  95986638.81006
R23  19216368.327 6 102794609.06706
G31  20965016.519 7 110171903.26807                  20965016.818 4  85848235.26204  20965017.548 6  85848226.26706
G25                                                                                  22351506.913 3                  22351508.797 5  87712130.57205
G26  21338388.208 7 112133989.13107                  21338393.872 4  87377156.65304  21338393.150 7  87377150.67207  21338391.655 8  83736432.41808
C34                                  22229525.404 7  87233437.99407  22229522.312 7 115754975.17007
G29  20653258.529 6 108533605.27606                  20653257.633 6  84571636.62406  20653258.832 6  84571648.62106
R24  20937127.595 7 111960225.52407                                  20937136.377 6  87080201.51016  20937123.336 6  83947893.42506
S21  38209325.101 6 200791372.49806
C44                                  21927142.200 6  86046813.03406
G28  21202811.309 6 111421525.97806                  21202811.749 3  86821971.40303  21202812.098 6  86821959.39506  21202817.179 7  83204409.46307
G18  22303884.407 6 117207751.83506                  22303886.463 3  91330683.13603  22303886.772 6  91330694.15106  22303891.721 7  87525336.73607
R12  22677542.526 5 121139366.26705
E26  24194297.927 7 127141892.50007                                  24194300.830 7  94943634.10807  24194300.225 6  97420422.30206
C25                                  21873257.160 7  85835357.57707  21873255.379 7 113899771.93907
R14  20333681.623 6 108389966.38406                                  20333688.549 5  84303320.73405
S36  38186156.283 6 200669605.16706
> 2024 02 23 13 44 39.0000000  0 20
C12                                                                  21356452.331 6 111208658.69206  21356456.017 7  85993598.03407
E21  24955369.914 4                                                  24955368.611 4
C11                                                                  23837683.329 5                  23837706.469 6  95984558.00006
R23  19216510.676 6 102795369.53206
G31  20965107.738 7 110172382.34707                  20965108.034 4  85848608.56704  20965108.786 6  85848599.56906
G25                                                                                  22352138.324 3                  22352139.179 5  87714604.44205
G26  21337995.406 7 112131925.72507                  21338001.241 4  87375548.80504  21338000.316 7  87375542.81007  21337998.958 8  83734891.56408
C34                                  22229191.975 7  87232129.64607  22229188.907 7 115753239.04107
G29  20653558.641 6 108535180.07306                  20653557.307 6  84572863.74006  20653558.669 6  84572875.75806
R24  20936519.481 7 111956972.80107                                  20936527.852 6  87077671.62106  20936515.101 6  83945454.53006
S21  38209373.024 6 200791621.23906
C44                                  21927432.645 6  86047952.76806
G28  21203240.216 6 111423779.03906                  21203240.529 3  86823727.03503  21203240.917 6  86823715.02906  21203245.862 7  83206091.92907
G18  22303355.984 6 117204975.66706                  22303358.266 3  91328519.89203  22303358.364 6  91328530.93806  22303363.406 7  87523263.61707
R12  22678304.477 5 121143433.27805
E26  24193979.668 7 127140219.73807                                  24193982.488 7  94942384.95607  24193981.966 6  97419140.58006
C24                                  22325255.973 7  87609099.66217  22325252.279 6 116253447.12516
C25                                  21873113.841 7  85834795.43307  21873112.068 7 113899026.01007
R14  20333208.169 5 108387440.48205                                  20333213.894 5  84301356.12905
S36  38186205.047 6 200669855.58306
> 2024 02 23 13 44 40.0000000  0 20
C12                                                                  21356454.152 6 111208669.28306  21356457.998 7  85993606.22807
E21  24955775.750 4                                                  24955773.699 3
C11                                                                                                  23837189.628 6  95982477.26306
R23  19216652.713 6 102796130.67206
G31  20965199.048 7 110172861.87607                  20965199.336 4  85848982.22504  20965200.059 6  85848973.23206
G25                                                                                  22352768.635 3                  22352769.495 5  87717078.31305
G26  21337602.722 7 112129862.43507                  21337608.597 4  87373941.04704  21337607.560 6  87373935.06306  21337606.225 8  83733350.80008
C34                                  22228858.585 7  87230821.42907  22228855.589 7 115751503.10507
G29  20653858.381 7 108536755.18707                  20653857.022 6  84574091.10306  20653858.375 6  84574103.10206
R24  20935911.635 7 111953720.35207                                  20935920.177 6  87075141.92606  20935906.926 6  83943015.84706
S21  38209420.365 6 200791869.77706
C44                                  21927723.039 6  86049092.71006  21927735.474 4
G28  21203668.965 7 111426032.44307                  21203669.353 3  86825482.93203  21203669.838 6  86825470.93306  21203674.603 7  83207774.66907
G18  22302827.597 6 117202199.70106                  22302830.051 3  91326356.81103  22302830.441 6  91326367.83806  22302835.163 7  87521190.65707
R12  22679066.705 5 121147500.48405
E26  24193661.355 7 127138547.18707                                  24193664.167 7  94941135.98807  24193663.675 6  97417859.01606
C24                                  22325727.671 7  87610950.92107  22325724.080 6 116255903.68506
C25                                  21872970.538 7  85834233.48707  21872968.430 7 113898280.30907
R14  20332734.071 5 108384914.83805                                  20332740.469 5  84299391.73405
S36  38186252.039 6 200670105.77906
> 2024 02 23 13 44 41.0000000  0 20
C12                                                                  21356456.131 6 111208680.30806  21356460.131 7  85993614.76107
E21  24956181.952 5                                                  24956179.723 3
C11                                                                                                  23836672.691 6  95980396.63206
R23  19216795.384 6 102796892.55706
G31  20965290.367 7 110173342.01907                  20965290.714 4  85849356.35704  20965291.637 6  85849347.37606
G25                                                                                  22353399.930 3                  22353400.227 5  87719552.34305
G26  21337210.108 7 112127799.39507                  21337216.002 4  87372333.48504  21337215.162 7  87372327.50807  21337213.543 8  83731810.22308
C34                                  22228525.291 7  87229513.47307  22228522.145 7 115749767.50007
G29  20654158.503 6 108538330.67506                  20654156.804 6  84575318.75606  20654158.043 6  84575330.74506
R24  20935303.430 7 111950468.33807                                  20935312.345 6  87072612.59706  20935298.808 6  83940577.47306
S21  38209468.582 6 200792118.25106
C44                                  21928013.465 6  86050232.90706  21928027.793 4
G28  21204097.963 7 111428286.35507                  21204098.231 3  86827239.22803  21204098.862 6  86827227.22406  21204103.430 7  83209457.78707
G18  22302299.329 6 117199424.04306                  22302301.840 3  91324193.96403  22302302.443 6  91324204.97506  22302306.903 7  87519117.93307
R12  22679827.832 5 121151567.77505
E26  24193343.140 7 127136875.00607                                  24193345.905 7  94939887.27907  24193345.438 6  97416577.73506
C24                                  22326199.463 7  87612802.41807  22326195.917 6 116258360.54106
C25                                  21872827.311 7  85833671.82407  21872825.138 7 113897535.01707
R14  20332260.306 5 108382389.58505                                  20332265.495 5  84297427.63405
S36  38186300.328 6 200670355.90106
> 2024 02 23 13 44 42.0000000  0 20
C12                                                                  21356458.389 6 111208691.38306  21356462.331 7  85993623.32307
E21  24956588.449 5                                                  24956585.004 3
C11                                                                                                  23836155.780 6  95978315.87206
R23  19216938.042 6 102797654.81206
G31  20965381.857 7 110173822.35707                  20965382.154 4  85849730.64604  20965383.024 6  85849721.65306
G25                                                                                  22354029.986 3                  22354030.924 5  87722026.14905
G26  21336817.493 7 112125736.21907                  21336823.398 4  87370725.81504  21336822.391 6  87370719.83906  21336820.871 8  83730269.54408
C34                                  22228191.980 7  87228205.46107  22228188.643 7 115748031.82307
G29  20654458.291 7 108539906.11507                  20654456.600 6  84576546.36906  20654457.995 6  84576558.36806
R24  20934695.494 7 111947216.33507                                  20934704.534 6  87070083.25606  20934690.671 7  83938139.13107
S21  38209516.465 6 200792366.24706
C44                                  21928303.830 6  86051373.07506  21928319.334 4
G28  21204527.000 7 111430540.36007                  21204527.193 3  86828995.59103  21204527.948 6  86828983.58106  21204532.332 7  83211140.97507
G18  22301771.059 6 117196648.28206                  22301773.742 3  91322031.03503  22301774.508 6  91322042.06506  22301778.667 7  87517045.13207
R12  22680589.601 5 121155634.87505
E26  24193024.997 7 127135202.72207                                  24193027.693 7  94938638.50107  24193027.180 6  97415296.38806
C24                                  22326671.304 7  87614653.84007  22326667.606 6 116260817.30206
C25                                  21872684.121 7  85833110.16507  21872682.129 7 113896789.70407
R14  20331786.710 5 108379864.31805                                  20331791.356 4  84295463.56404
S36  38186349.015 6 200670605.51006
> 2024 02 23 13 44 43.0000000  0 20
C12                                                                  21356460.502 6 111208702.38606  21356464.446 7  85993631.83007
E21  24956995.117 5                                                  24956990.325 3
C11                                                                                                  23835638.742 6  95976234.85806
R23  19217080.744 6 102798417.32106
G31  20965473.414 7 110174302.80807                  20965473.598 4  85850105.02604  20965474.252 6  85850096.04406
G25                                                                                  22354657.891 3                  22354661.445 5  87724499.77405
G26  21336424.994 7 112123672.80307                  21336430.781 4  87369117.96304  21336429.496 6  87369111.98506  21336428.130 8  83728728.68208
C34                                  22227858.601 7  87226897.32207  22227855.169 7 115746295.97007
G29  20654758.058 7 108541481.43007                  20654756.359 6  84577773.89406  20654757.923 6  84577785.88006
R24  20934087.389 7 111943964.25907                                  20934096.438 6  87067553.87206  20934082.494 7  83935700.71807
S21  38209562.321 6 200792613.65406
C44                                  21928594.206 6  86052513.14606  21928609.185 4
G28  21204956.039 7 111432794.37407                  21204956.152 3  86830751.96403  21204956.516 6  86830739.95906  21204961.196 7  83212824.17207
G18  22301242.914 6 117193872.35206                  22301245.643 3  91319867.98103  22301246.296 6  91319878.99706  22301250.409 7  87514972.20007
R12  22681351.106 5 121159701.63205
E26  24192706.748 7 127133530.29207                                  24192709.494 7  94937389.61607  24192709.002 6  97414014.91606
C24                                  22327143.076 7  87616505.12907  22327139.314 6 116263273.89006
C25                                  21872540.950 7  85832548.42607  21872539.110 7 113896044.28907
R14  20331312.852 5 108377338.92205                                  20331317.308 4  84293499.39104
S36  38186395.368 6 200670854.58706
> 2024 02 23 13 44 44.0000000  0 20
C12                                                                  21356462.945 6 111208713.67006  21356466.798 7  85993640.55707
E21  24957401.457 5                                                  24957395.915 4
C11                                                                  23835109.910 4                  23835122.058 6  95974153.92806
R23  19217223.149 6 102799180.46806
G31  20965564.797 7 110174783.71807                  20965565.119 4  85850479.76104  20965565.988 6  85850470.76906
G25                                                                                  22355288.658 3                  22355291.686 4  87726973.41304
G26  21336032.314 7 112121609.48607                  21336038.172 4  87367510.19104  21336036.932 6  87367504.21306  21336035.469 8  83727187.90508
C34                                  22227525.258 7  87225589.34407  22227521.932 7 115744560.32507
G29  20655057.961 6 108543056.96706                  20655056.164 6  84579001.58806  20655057.427 6  84579013.56506
R24  20933478.999 7 111940712.53007                                  20933488.304 6  87065024.74206  20933474.402 6  83933262.57106
S21  38209608.821 6 200792860.90306
C44                                  21928884.670 6  86053653.37806  21928899.952 4
G28  21205385.044 7 111435048.76907                  21205385.155 3  86832508.64303  21205385.586 6  86832496.62406  21205390.191 7  83214507.64707
G18  22300714.976 6 117191096.60906                  22300717.536 3  91317705.07403  22300718.327 6  91317716.07306  22300722.157 7  87512899.43307
R12  22682113.102 5 121163768.47505
E26  24192388.712 7 127131858.06507                                  24192391.272 7  94936140.87307  24192390.743 6  97412733.59206
C24                                  22327614.851 7  87618356.54107  22327610.989 6 116265730.63906
C25                                  21872397.884 7  85831986.86507  21872395.949 7 113895299.12907
R14  20330838.841 5 108374813.66505                                  20330842.805 4  84291535.24704
S36  38186441.403 6 200671103.54606
> 2024 02 23 13 44 45.0000000  0 20
C12                                                                  21356465.480 6 111208725.43706  21356469.159 7  85993649.65907
E21  24957807.579 5                                                  24957801.804 4
C11                                                                  23834593.263 4                  23834605.220 6  95972073.12606
R23  19217365.905 6 102799944.42306
G31  20965656.520 7 110175265.30807                  20965656.783 4  85850855.02604  20965657.654 6  85850846.03306
G25                                                                                  22355919.121 3                  22355921.962 4  87729447.16004
G26  21335639.744 7 112119546.49307                  21335645.635 4  87365902.66604  21335644.194 6  87365896.68706  21335642.872 8  83725647.36208
C34                                  22227192.029 7  87224281.63807  22227188.643 7 115742825.05607
G29  20655357.632 6 108544632.91106                  20655356.062 6  84580229.59206  20655357.468 6  84580241.57706
R24  20932870.830 7 111937461.24007                                  20932880.182 6  87062495.97006  20932866.512 7  83930824.76107
S21  38209658.273 6 200793108.10806
C44                                  21929175.311 6  86054793.91106  21929190.594 4
G28  21205814.226 7 111437303.68607                  21205814.341 3  86834265.71403  21205814.798 6  86834253.70006  21205819.258 7  83216191.51507
G18  22300186.646 6 117188321.19906                  22300189.553 3  91315542.41303  22300190.271 6  91315553.41506  22300193.924 7  87510826.87207
R12  22682874.633 5 121167835.58705
E26  24192070.561 7 127130186.17307                                  24192073.152 7  94934892.38707  24192072.592 6  97411452.55106
C24                                  22328086.701 7  87620208.19407  22328082.799 6 116268187.68606
C25                                  21872254.922 7  85831425.64707  21872252.959 7 113894554.43107
R14  20330365.214 5 108372288.85405                                  20330368.881 4  84289571.53004
S36  38186490.175 6 200671352.38406
> 2024 02 23 13 44 46.0000000  0 20
C12                                                                  21356468.087 6 111208737.52806  21356471.341 7  85993659.01307
E21  24958213.607 5                                                  24958207.241 4
C11                                                                  23834076.952 5                  23834088.431 6  95969992.41006
R23  19217508.819 6 102800709.03006
G31  20965748.232 7 110175747.36507                  20965748.550 4  85851230.65904  20965749.414 6  85851221.67906
G25                                                                                  22356550.259 3                  22356552.475 5  87731920.99505
G26  21335247.236 7 112117483.64907                  21335253.094 4  87364295.25804  21335251.661 6  87364289.27506  21335250.271 8  83724106.92708
C34                                  22226858.809 7  87222974.09007  22226855.617 7 115741090.02607
G29  20655657.550 6 108546209.11006                  20655656.010 6  84581457.80106  20655657.398 6  84581469.78406
R24  20932262.899 7 111934210.28007                                  20932271.441 6  87059967.46706  20932258.645 7  83928387.20207
S21  38209705.561 6 200793355.15106
C44                                  21929466.031 6  86055934.62906  21929481.115 4
G28  21206243.521 7 111439559.00207                  21206243.563 3  86836023.10003  21206243.933 6  86836011.09706  21206248.360 7  83217875.67007
G18  22299658.330 6 117185546.01506                  22299661.553 3  91313379.93403  22299662.415 6  91313390.94606  22299665.811 7  87508754.49007
R12  22683636.267 5 121171902.76905
E26  24191752.504 7 127128514.53507                                  24191755.053 7  94933644.08907  24191754.493 6  97410171.67006
C24                                  22328558.638 7  87622060.00307  22328554.771 6 116270644.96506
C25                                  21872111.912 7  85830864.62507  21872109.833 7 113893809.99207
R14  20329891.621 5 108369764.25205                                  20329896.127 4  84287607.92004
S36  38186536.327 6 200671601.13406
> 2024 02 23 13 44 47.0000000  0 20
C12                                                                  21356470.782 6 111208749.70306  21356473.640 7  85993668.42507
E21  24958620.127 5                                                  24958613.099 4
C11                                                                  23833560.430 5                  23833571.566 6  95967911.55706
R23  19217651.788 6 102801474.05106
G31  20965839.941 7 110176229.67507                  20965840.361 4  85851606.48604  20965841.323 6  85851597.50306
G25                                                                                  22357181.599 3                  22357182.861 4  87734394.67904
G26  21334854.675 7 112115420.68707                  21334860.521 4  87362687.75704  21334858.931 6  87362681.78306  21334857.645 8  83722566.40508
C34                                  22226525.634 7  87221666.54307  22226522.484 7 115739354.96207
G29  20655957.319 6 108547785.32606                  20655955.953 6  84582686.01206  20655957.077 6  84582698.00906
R24  20931655.094 7 111930959.41107                                  20931664.115 6  87057439.02906  20931650.724 7  83925949.69707
S21  38209752.651 6 200793601.77906
C44                                  21929756.774 6  86057075.34506  21929771.578 4
G28  21206672.655 7 111441814.47907                  21206672.861 3  86837780.61403  21206673.128 6  86837768.59506  21206677.509 7  83219559.95407
G18  22299130.273 6 117182770.78506                  22299133.504 3  91311217.41803  22299134.236 6  91311228.44206  22299137.716 7  87506682.09907
R12  22684397.449 5 121175969.80805
E26  24191434.423 7 127126842.87307                                  24191436.917 7  94932395.77107  24191436.361 6  97408890.79006
C24                                  22329030.501 7  87623911.79207  22329026.773 6 116273102.21006
C25                                  21871968.981 7  85830303.62307  21871966.864 7 113893065.56107
R14  20329417.857 6 108367239.59806                                  20329421.601 4  84285644.24704
S36  38186585.036 6 200671849.48906
> 2024 02 23 13 44 48.0000000  0 20
C12                                                                  21356473.481 6 111208761.79106  21356475.889 7  85993677.76707
E21  24959025.904 5                                                  24959019.346 3
C11                                                                  23833043.158 5                  23833054.765 6  95965830.45206
R23  19217795.099 6 102802239.33406
G31  20965931.680 7 110176712.10107                  20965932.204 4  85851982.40004  20965933.356 6  85851973.41206
G25                                                                                  22357811.069 3                  22357813.177 5  87736868.10405
G26  21334462.125 7 112113357.48607                  21334467.886 4  87361080.06604  21334466.456 6  87361074.09206  21334465.046 8  83721025.71208
C34                                  22226192.455 7  87220358.85907  22226189.135 7 115737619.71607
G29  20656256.973 6 108549361.39506                  20656255.882 6  84583914.11906  20656256.949 6  84583926.10806
R24  20931047.252 7 111927708.45107                                  20931056.292 6  87054910.46806  20931042.835 7  83923512.12307
S21  38209798.731 6 200793847.81106
C44                                  21930047.380 6  86058215.94506  21930062.583 4
G28  21207101.628 7 111444069.93607                  21207102.173 3  86839538.11203  21207102.277 6  86839526.10106  21207106.672 7  83221244.21907
G18  22298602.310 6 117179995.34106                  22298605.454 3  91309054.73903  22298606.064 6  91309065.76106  22298609.596 7  87504609.53507
R12  22685158.501 6 121180036.50406
E26  24191116.398 7 127125171.01107                                  24191118.744 7  94931147.29607  24191118.202 6  97407609.76706
C24                                  22329502.414 7  87625763.40307  22329498.671 6 116275559.23006
C25                                  21871826.003 7  85829742.55107  21871823.941 7 113892321.03807
R14  20328943.245 5 108364714.83605                                  20328947.632 4  84283680.65404
S36  38186631.984 6 200672097.28706
> 2024 02 23 13 44 49.0000000  0 20
C12                                                                  21356475.899 6 111208774.06406  21356478.281 7  85993687.25607
E21  24959431.368 5                                                  24959424.815 4
C11                                                                  23832526.408 5                  23832538.093 6  95963749.30106
R23  19217938.200 6 102803005.09906
G31  20966023.630 7 110177194.82407                  20966024.100 4  85852358.54404  20966024.887 6  85852349.55606
G25                                                                                  22358441.420 3                  22358443.663 4  87739341.44004
G26  21334069.324 7 112111294.24707                  21334075.228 4  87359472.35004  21334073.688 6  87359466.37606  21334072.390 7  83719484.98507
C34                                  22225859.295 7  87219051.21907  22225855.949 7 115735884.53707
G29  20656556.956 6 108550937.57106                  20656555.816 6  84585142.30806  20656556.779 6  84585154.28806
R24  20930439.257 7 111924457.65107                                  20930448.021 6  87052382.09106  20930434.978 7  83921074.68607
S21  38209844.185 6 200794093.52306
C44                                  21930338.106 6  86059356.61206  21930352.420 4
G28  21207530.713 7 111446325.61907                  21207531.417 3  86841295.78203  21207531.461 6  86841283.77606  21207535.944 7  83222928.66207
G18  22298074.472 6 117177219.98406                  22298077.409 3  91306892.12103  22298078.071 6  91306903.14206  22298081.444 7  87502537.02007
R12  22685919.557 5 121184103.12605
E26  24190798.427 7 127123499.23707                                  24190800.625 7  94929898.91207  24190800.036 6  97406328.79506
C24                                  22329974.322 7  87627615.06307  22329970.367 6 116278016.30206
C25                                  21871683.022 7  85829181.54807  21871680.864 7 113891576.61507
R14  20328468.885 5 108362190.19605                                  20328474.093 4  84281717.02704
S36  38186679.039 6 200672344.81506
> 2024 02 23 13 44 50.0000000  0 20
C12                                                                  21356478.159 6 111208786.66106  21356480.754 7  85993697.00107
E21  24959837.700 5                                                  24959830.731 4
C11                                                                  23832009.685 5                  23832021.501 6  95961668.21506
R23  19218081.482 6 102803771.55706
G31  20966115.648 7 110177678.09407                  20966116.104 4  85852735.12004  20966116.811 6  85852726.12906
G25                                                                                  22359072.201 3                  22359073.802 4  87741814.86304
G26  21333676.700 7 112109231.19807                  21333682.642 4  87357864.78304  21333681.189 6  87357858.80506  21333679.832 8  83717944.39508
C34                                  22225526.094 7  87217743.76007  22225522.681 7 115734149.58507
G29  20656856.908 6 108552514.00306                  20656855.804 6  84586370.69406  20656856.930 6  84586382.68906
R24  20929831.432 7 111921207.19407                                  20929840.521 6  87049853.96406  20929827.164 7  83918637.48007
S21  38209891.911 6 200794339.07706
C44                                  21930628.871 6  86060497.48206  21930643.531 4
G28  21207959.891 7 111448581.71907                  21207960.711 3  86843053.78103  21207961.040 6  86843041.77706  21207965.225 7  83224613.40507
G18  22297546.520 6 117174444.82706                  22297549.395 3  91304729.66003  22297549.980 6  91304740.68206  22297553.323 7  87500464.65607
R12  22686681.342 5 121188169.85305
E26  24190480.502 7 127121827.68907                                  24190482.580 7  94928650.67907  24190481.901 6  97405048.00406
C24                                  22330446.211 7  87629466.86107  22330442.105 6 116280473.56406
C25                                  21871540.112 7  85828620.78807  21871538.018 7 113890832.50107
R14  20327995.218 5 108359665.82405                                  20327999.521 4  84279753.61204
S36  38186724.144 6 200672592.14206
> 2024 02 23 13 44 51.0000000  0 20
C12                                                                  21356480.190 6 111208799.71906  21356483.391 7  85993707.09907
E21  24960243.290 5                                                  24960236.951 4
C11                                                                  23831493.070 5                  23831504.742 6  95959587.31106
R23  19218225.356 6 102804538.80106
G31  20966207.803 7 110178161.97207                  20966208.232 4  85853112.16504  20966208.685 6  85853103.17606
G25                                                                                  22359701.233 3                  22359704.001 4  87744288.40404
G26  21333284.132 7 112107168.42607                  21333290.114 4  87356257.43304  21333288.716 6  87356251.46306  21333287.369 8  83716404.02708
C34                                  22225193.010 7  87216436.57007  22225189.406 7 115732414.99307
G29  20657156.910 6 108554090.83706                  20657155.863 6  84587599.39506  20657157.043 6  84587611.38606
R24  20929223.826 7 111917957.19307                                  20929232.756 6  87047326.19106  20929219.422 7  83916200.63807
S21  38209937.808 6 200794584.56606
C44                                  21930919.625 6  86061638.64806  21930934.442 4
G28  21208389.303 7 111450838.34107                  21208390.175 3  86844812.18303  21208390.448 6  86844800.16306  21208394.696 7  83226298.53807
G18  22297018.671 6 117171670.01106                  22297021.440 3  91302567.46603  22297022.108 6  91302578.48906  22297025.223 7  87498392.55707
R12  22687443.255 6 121192236.79406
E26  24190162.450 7 127120156.50707                                  24190164.542 7  94927402.71907  24190163.878 6  97403767.48506
C24                                  22330918.140 7  87631318.92807  22330914.254 6 116282931.16006
C25                                  21871397.267 7  85828060.34107  21871395.235 7 113890088.79307
R14  20327521.736 5 108357141.82405                                  20327526.371 4  84277790.57204
S36  38186771.306 6 200672839.40106
> 2024 02 23 13 44 52.0000000  0 20
C12                                                                  21356482.591 6 111208812.96906  21356485.966 7  85993717.34507
E21  24960649.340 5                                                  24960642.357 4
C11                                                                  23830976.825 5                  23830987.974 6  95957506.36806
R23  19218368.899 6 102805306.58006
G31  20966300.064 7 110178646.20007                  20966300.406 4  85853489.48504  20966300.587 6  85853480.48606
G25                                                                                  22360332.550 3                  22360334.497 4  87746761.98504
G26  21332891.481 7 112105105.65007                  21332897.551 4  87354650.07804  21332895.930 7  87354644.10607  21332894.850 8  83714863.64408
C34                                  22224859.904 7  87215129.43907  22224856.298 7 115730680.48907
G29  20657456.696 6 108555667.82606                  20657455.963 6  84588828.22106  20657456.903 6  84588840.19006
R24  20928616.326 7 111914707.39207                                  20928625.654 6  87044798.56706  20928611.741 7  83913763.92307
S21  38209984.362 6 200794829.75706
C44                                  21931210.503 6  86062779.89506  21931225.383 5
G28  21208818.891 7 111453095.20207                  21208819.544 3  86846570.77703  21208819.869 6  86846558.78006  21208824.223 7  83227983.86307
G18  22296490.649 6 117168895.28106                  22296493.449 3  91300405.34503  22296494.275 6  91300416.34706  22296497.263 7  87496320.51507
R12  22688204.820 5 121196303.69705
E26  24189844.321 7 127118485.42307                                  24189846.523 7  94926154.83907  24189845.809 6  97402487.04906
C24                                  22331390.072 7  87633171.03207  22331386.331 6 116285388.85006
C25                                  21871254.410 7  85827499.98907  21871252.633 7 113889345.23707
R14  20327048.957 5 108354617.91905                                  20327052.608 4  84275827.55504
S36  38186816.653 6 200673086.29806
> 2024 02 23 13 44 53.0000000  0 20
C12                                                                  21356484.965 6 111208826.31906  21356488.649 7  85993727.66407
E21  24961055.404 5                                                  24961048.135 4
C11                                                                  23830460.053 5                  23830471.018 6  95955425.28306
R23  19218512.528 6 102806074.77506
G31  20966392.363 7 110179130.72907                  20966392.620 4  85853867.04204  20966392.824 6  85853858.05306
G25                                                                                  22360961.381 4                  22360964.403 4  87749235.29604
G26  21332499.056 7 112103042.82907                  21332505.000 4  87353042.69304  21332503.560 6  87353036.72506  21332502.283 8  83713323.23208
C34                                  22224526.770 7  87213822.32607  22224523.229 7 115728946.00207
G29  20657756.592 6 108557244.79606                  20657756.063 6  84590057.02706  20657757.053 6  84590069.01606
R24  20928008.620 7 111911457.68707                                  20928017.871 6  87042271.02206  20928004.015 7  83911327.30807
S21  38210029.637 6 200795074.57106
C44                                  21931501.384 6  86063921.14806  21931516.772 4
G28  21209248.355 7 111455352.24707                  21209249.012 3  86848329.51203  21209249.373 6  86848317.52306  21209253.808 7  83229669.32907
G18  22295962.744 6 117166120.49806                  22295965.466 3  91298243.18303  22295965.708 6  91298254.19706  22295969.271 7  87494248.45707
R12  22688965.493 5 121200370.44705
E26  24189526.143 7 127116814.32907                                  24189528.498 7  94924906.93707  24189527.739 6  97401206.59406
C24                                  22331862.017 7  87635023.12107  22331858.391 6 116287846.47206
C25                                  21871111.654 7  85826939.70207  21871109.912 7 113888601.77507
R14  20326574.933 5 108352094.04605                                  20326580.392 4  84273864.46204
S36  38186867.052 6 200673332.78406
> 2024 02 23 13 44 54.0000000  0 20
C12                                                                  21356487.483 6 111208839.66906  21356491.203 7  85993737.99007
E21  24961461.369 5                                                  24961452.839 3
C11                                                                  23829943.129 5                  23829954.018 6  95953344.03606
R23  19218656.044 6 102806843.32006
G31  20966484.544 7 110179615.42807                  20966484.878 4  85854244.72704  20966485.304 6  85854235.73606
G25                                                                                  22361593.610 4                  22361594.257 4  87751708.52204
G26  21332106.566 7 112100979.82907                  21332112.419 4  87351435.16304  21332111.033 6  87351429.18906  21332109.724 8  83711782.68408
C34                                  22224193.728 7  87212515.12607  22224189.936 7 115727211.40807
